{
  "type": "FeatureCollection",
  "generator": "overpass-turbo",
  "copyright": "The data included in this document is from www.openstreetmap.org. The data is made available under ODbL.",
  "timestamp": "2015-08-26T21:51:02Z",
  "features": [
    {
      "type": "Feature",
      "id": "node/26461290",
      "properties": {
        "@id": "node/26461290",
        "amenity": "clinic",
        "name": "مرکز درمانی دارالشفاء امام مجتبی",
        "name:en": "Emam Mojtaba clinic"
      },
      "geometry": {
        "type": "Point",
        "coordinates": [
          51.4541419,
          35.6852967
        ]
      }
    },
    {
      "type": "Feature",
      "id": "node/287319174",
      "properties": {
        "@id": "node/287319174",
        "addr:city": "Rayton",
        "addr:postcode": "1001",
        "addr:street": "Montrose Street",
        "amenity": "clinic",
        "name": "Rayton Public Clinic",
        "phone": "+27127344274"
      },
      "geometry": {
        "type": "Point",
        "coordinates": [
          28.53191,
          -25.73899
        ]
      }
    },
    {
      "type": "Feature",
      "id": "node/291589482",
      "properties": {
        "@id": "node/291589482",
        "amenity": "clinic",
        "emergency": "no",
        "name": "מדיקל סנטר",
        "name:en": "Herzliya Medical Center",
        "name:he": "מדיקל סנטר"
      },
      "geometry": {
        "type": "Point",
        "coordinates": [
          34.8032793,
          32.1771212
        ]
      }
    },
    {
      "type": "Feature",
      "id": "node/306011885",
      "properties": {
        "@id": "node/306011885",
        "amenity": "clinic",
        "name": "קופת חולים כללית",
        "name:en": "Clalit clinic",
        "name:he": "קופת חולים כללית",
        "operator": "קופת חולים כללית",
        "operator:en": "Clalit"
      },
      "geometry": {
        "type": "Point",
        "coordinates": [
          34.8700106,
          32.3030057
        ]
      }
    },
    {
      "type": "Feature",
      "id": "node/306011887",
      "properties": {
        "@id": "node/306011887",
        "amenity": "clinic",
        "name": "קופת חולים מאוחדת",
        "name:en": "Meuhedet clinic",
        "name:he": "קופת חולים מאוחדת",
        "operator": "קופת חולים מאוחדת",
        "operator:en": "Meuhedet"
      },
      "geometry": {
        "type": "Point",
        "coordinates": [
          34.8702337,
          32.3030346
        ]
      }
    },
    {
      "type": "Feature",
      "id": "node/306011889",
      "properties": {
        "@id": "node/306011889",
        "amenity": "clinic",
        "name": "קופת חולים כללית",
        "name:en": "Clalit",
        "name:he": "קופת חולים כללית",
        "operator": "קופת חולים כללית",
        "operator:en": "Clalit"
      },
      "geometry": {
        "type": "Point",
        "coordinates": [
          34.8450112,
          32.2960073
        ]
      }
    },
    {
      "type": "Feature",
      "id": "node/319059018",
      "properties": {
        "@id": "node/319059018",
        "addr:city": "Corralejo",
        "addr:postcode": "35660",
        "addr:street": "Calle la Acacia",
        "amenity": "clinic",
        "name": "Clinica Medica Brisamar",
        "phone": "+34 928 536 179"
      },
      "geometry": {
        "type": "Point",
        "coordinates": [
          -13.8705131,
          28.7327825
        ]
      }
    },
    {
      "type": "Feature",
      "id": "node/431771038",
      "properties": {
        "@id": "node/431771038",
        "amenity": "clinic",
        "name": "Sir Clinic",
        "name:ar": "عيادة صير"
      },
      "geometry": {
        "type": "Point",
        "coordinates": [
          35.3141107,
          32.3641186
        ]
      }
    },
    {
      "type": "Feature",
      "id": "node/447602285",
      "properties": {
        "@id": "node/447602285",
        "amenity": "clinic",
        "name": "Clínica Santa Catalina"
      },
      "geometry": {
        "type": "Point",
        "coordinates": [
          -15.4294844,
          28.1267695
        ]
      }
    },
    {
      "type": "Feature",
      "id": "node/457135181",
      "properties": {
        "@id": "node/457135181",
        "amenity": "clinic",
        "name": "Leumit Healthcare center"
      },
      "geometry": {
        "type": "Point",
        "coordinates": [
          34.8541449,
          32.327829
        ]
      }
    },
    {
      "type": "Feature",
      "id": "node/534566740",
      "properties": {
        "@id": "node/534566740",
        "amenity": "clinic",
        "name": "שירותי בריאות כללית",
        "name:en": "Clalit",
        "name:he": "שירותי בריאות כללית",
        "operator": "שירותי בריאות כללית",
        "operator:en": "Clalit",
        "operator:he": "שירותי בריאות כללית"
      },
      "geometry": {
        "type": "Point",
        "coordinates": [
          34.8753684,
          32.1820933
        ]
      }
    },
    {
      "type": "Feature",
      "id": "node/535159830",
      "properties": {
        "@id": "node/535159830",
        "amenity": "clinic",
        "name": "Dispensaire"
      },
      "geometry": {
        "type": "Point",
        "coordinates": [
          2.9829936,
          36.8133738
        ]
      }
    },
    {
      "type": "Feature",
      "id": "node/582947296",
      "properties": {
        "@id": "node/582947296",
        "amenity": "clinic",
        "name": "Centre de Santé Diar Djemaa"
      },
      "geometry": {
        "type": "Point",
        "coordinates": [
          3.1264192,
          36.7292871
        ]
      }
    },
    {
      "type": "Feature",
      "id": "node/608366017",
      "properties": {
        "@id": "node/608366017",
        "amenity": "clinic",
        "name": "קופת חולים כללית",
        "name:en": "Clalit Health Center",
        "name:he": "קופת חולים כללית"
      },
      "geometry": {
        "type": "Point",
        "coordinates": [
          34.8610885,
          32.3370906
        ]
      }
    },
    {
      "type": "Feature",
      "id": "node/610233369",
      "properties": {
        "@id": "node/610233369",
        "amenity": "clinic",
        "name": "Princeton Children's Medical Centre",
        "phone": "+256 414 530704"
      },
      "geometry": {
        "type": "Point",
        "coordinates": [
          32.5892961,
          0.3396125
        ]
      }
    },
    {
      "type": "Feature",
      "id": "node/612932029",
      "properties": {
        "@id": "node/612932029",
        "amenity": "clinic",
        "name": "Lamu Medical Clinic"
      },
      "geometry": {
        "type": "Point",
        "coordinates": [
          40.9017382,
          -2.2667349
        ]
      }
    },
    {
      "type": "Feature",
      "id": "node/663674261",
      "properties": {
        "@id": "node/663674261",
        "addr:city": "Entebbe",
        "addr:street": "Julia Sebutinde Road",
        "amenity": "clinic",
        "name": "AAR Victoria Medical Centre"
      },
      "geometry": {
        "type": "Point",
        "coordinates": [
          32.4646819,
          0.0553764
        ]
      }
    },
    {
      "type": "Feature",
      "id": "node/678305304",
      "properties": {
        "@id": "node/678305304",
        "amenity": "clinic"
      },
      "geometry": {
        "type": "Point",
        "coordinates": [
          47.4768224,
          -18.8476122
        ]
      }
    },
    {
      "type": "Feature",
      "id": "node/703758790",
      "properties": {
        "@id": "node/703758790",
        "amenity": "clinic"
      },
      "geometry": {
        "type": "Point",
        "coordinates": [
          47.5054651,
          -18.8762064
        ]
      }
    },
    {
      "type": "Feature",
      "id": "node/704336998",
      "properties": {
        "@id": "node/704336998",
        "amenity": "clinic",
        "name": "Hamburg Clinic"
      },
      "geometry": {
        "type": "Point",
        "coordinates": [
          27.4732736,
          -33.2905803
        ]
      }
    },
    {
      "type": "Feature",
      "id": "node/767121532",
      "properties": {
        "@id": "node/767121532",
        "amenity": "clinic",
        "name": "ASISA"
      },
      "geometry": {
        "type": "Point",
        "coordinates": [
          -6.1398252,
          36.6694122
        ]
      }
    },
    {
      "type": "Feature",
      "id": "node/791628856",
      "properties": {
        "@id": "node/791628856",
        "amenity": "clinic",
        "name": "תחנה לבריאות המשפחה",
        "name:en": "Family Health Center",
        "name:he": "תחנה לבריאות המשפחה"
      },
      "geometry": {
        "type": "Point",
        "coordinates": [
          35.0551262,
          32.8320375
        ]
      }
    },
    {
      "type": "Feature",
      "id": "node/836228147",
      "properties": {
        "@id": "node/836228147",
        "amenity": "clinic"
      },
      "geometry": {
        "type": "Point",
        "coordinates": [
          35.4972819,
          32.9710865
        ]
      }
    },
    {
      "type": "Feature",
      "id": "node/896490601",
      "properties": {
        "@id": "node/896490601",
        "amenity": "clinic",
        "name": "מעון שקמה",
        "name:en": "Shikma Institute",
        "name:he": "מעון שקמה"
      },
      "geometry": {
        "type": "Point",
        "coordinates": [
          34.8877455,
          32.1824747
        ]
      }
    },
    {
      "type": "Feature",
      "id": "node/924489975",
      "properties": {
        "@id": "node/924489975",
        "amenity": "clinic",
        "name": "عيادة الزعفرانة"
      },
      "geometry": {
        "type": "Point",
        "coordinates": [
          54.434053,
          24.4351035
        ]
      }
    },
    {
      "type": "Feature",
      "id": "node/973573475",
      "properties": {
        "@id": "node/973573475",
        "amenity": "clinic",
        "name": "Palestine Diabetes Institute"
      },
      "geometry": {
        "type": "Point",
        "coordinates": [
          35.2148923,
          31.9061489
        ]
      }
    },
    {
      "type": "Feature",
      "id": "node/992021266",
      "properties": {
        "@id": "node/992021266",
        "amenity": "clinic",
        "operator": "כללית",
        "operator:en": "Clalit"
      },
      "geometry": {
        "type": "Point",
        "coordinates": [
          34.7795224,
          31.2594154
        ]
      }
    },
    {
      "type": "Feature",
      "id": "node/995141683",
      "properties": {
        "@id": "node/995141683",
        "amenity": "clinic",
        "name": "Clinique des Soeures"
      },
      "geometry": {
        "type": "Point",
        "coordinates": [
          2.8349098,
          36.4680452
        ]
      }
    },
    {
      "type": "Feature",
      "id": "node/1002015034",
      "properties": {
        "@id": "node/1002015034",
        "amenity": "clinic",
        "name": "תחנה לבריאות המשפחה רוממה",
        "name:en": "Romema Family Health Clinic"
      },
      "geometry": {
        "type": "Point",
        "coordinates": [
          34.996869,
          32.7857197
        ]
      }
    },
    {
      "type": "Feature",
      "id": "node/1011094058",
      "properties": {
        "@id": "node/1011094058",
        "amenity": "clinic",
        "landuse": "military",
        "name": "חר\"פ דרום",
        "name:en": "Harap South",
        "name:he": "חר\"פ דרום"
      },
      "geometry": {
        "type": "Point",
        "coordinates": [
          34.7962502,
          31.2246697
        ]
      }
    },
    {
      "type": "Feature",
      "id": "node/1016041846",
      "properties": {
        "@id": "node/1016041846",
        "amenity": "clinic",
        "name": "Polyclinique"
      },
      "geometry": {
        "type": "Point",
        "coordinates": [
          3.0843292,
          36.577146
        ]
      }
    },
    {
      "type": "Feature",
      "id": "node/1016971266",
      "properties": {
        "@id": "node/1016971266",
        "amenity": "clinic",
        "name:ar": "مستوصف متن الساحل"
      },
      "geometry": {
        "type": "Point",
        "coordinates": [
          35.9139167,
          34.9986501
        ]
      }
    },
    {
      "type": "Feature",
      "id": "node/1023773651",
      "properties": {
        "@id": "node/1023773651",
        "amenity": "clinic",
        "name": "Misimbwe",
        "source": "Dana Thompson"
      },
      "geometry": {
        "type": "Point",
        "coordinates": [
          29.0700847,
          -2.0704033
        ]
      }
    },
    {
      "type": "Feature",
      "id": "node/1023773653",
      "properties": {
        "@id": "node/1023773653",
        "amenity": "clinic",
        "name": "Bwina",
        "source": "Dana Thompson"
      },
      "geometry": {
        "type": "Point",
        "coordinates": [
          29.0944988,
          -2.2221638
        ]
      }
    },
    {
      "type": "Feature",
      "id": "node/1023773655",
      "properties": {
        "@id": "node/1023773655",
        "amenity": "clinic",
        "name": "Mpene",
        "source": "Dana Thompson"
      },
      "geometry": {
        "type": "Point",
        "coordinates": [
          28.9944527,
          -2.1864736
        ]
      }
    },
    {
      "type": "Feature",
      "id": "node/1023773667",
      "properties": {
        "@id": "node/1023773667",
        "amenity": "clinic",
        "name": "Mugote",
        "source": "Dana Thompson"
      },
      "geometry": {
        "type": "Point",
        "coordinates": [
          29.0685674,
          -2.1818494
        ]
      }
    },
    {
      "type": "Feature",
      "id": "node/1023773669",
      "properties": {
        "@id": "node/1023773669",
        "amenity": "clinic",
        "name": "Lemera",
        "source": "Dana Thompson"
      },
      "geometry": {
        "type": "Point",
        "coordinates": [
          29.0801726,
          -2.2143759
        ]
      }
    },
    {
      "type": "Feature",
      "id": "node/1023773671",
      "properties": {
        "@id": "node/1023773671",
        "amenity": "clinic",
        "name": "Bwando",
        "source": "Dana Thompson"
      },
      "geometry": {
        "type": "Point",
        "coordinates": [
          29.0825476,
          -2.165472
        ]
      }
    },
    {
      "type": "Feature",
      "id": "node/1023773685",
      "properties": {
        "@id": "node/1023773685",
        "amenity": "clinic",
        "name": "Kintama",
        "source": "Dana Thompson"
      },
      "geometry": {
        "type": "Point",
        "coordinates": [
          29.0330071,
          -2.225256
        ]
      }
    },
    {
      "type": "Feature",
      "id": "node/1023773689",
      "properties": {
        "@id": "node/1023773689",
        "amenity": "clinic",
        "name": "Kisiza",
        "source": "Dana Thompson"
      },
      "geometry": {
        "type": "Point",
        "coordinates": [
          29.0387879,
          -2.1898476
        ]
      }
    },
    {
      "type": "Feature",
      "id": "node/1023773692",
      "properties": {
        "@id": "node/1023773692",
        "amenity": "clinic",
        "name": "Camahiri",
        "source": "Dana Thompson"
      },
      "geometry": {
        "type": "Point",
        "coordinates": [
          29.0220143,
          -2.1549259
        ]
      }
    },
    {
      "type": "Feature",
      "id": "node/1023773709",
      "properties": {
        "@id": "node/1023773709",
        "amenity": "clinic",
        "name": "Bukumbi (Shayo??)",
        "source": "Dana Thompson"
      },
      "geometry": {
        "type": "Point",
        "coordinates": [
          29.1034294,
          -2.0228737
        ]
      }
    },
    {
      "type": "Feature",
      "id": "node/1023773713",
      "properties": {
        "@id": "node/1023773713",
        "amenity": "clinic",
        "name": "Bweshu",
        "source": "Dana Thompson"
      },
      "geometry": {
        "type": "Point",
        "coordinates": [
          29.0934421,
          -2.0465297
        ]
      }
    },
    {
      "type": "Feature",
      "id": "node/1023773730",
      "properties": {
        "@id": "node/1023773730",
        "amenity": "clinic",
        "name": "Lumala",
        "source": "Dana Thompson"
      },
      "geometry": {
        "type": "Point",
        "coordinates": [
          29.0609379,
          -2.0364761
        ]
      }
    },
    {
      "type": "Feature",
      "id": "node/1023773746",
      "properties": {
        "@id": "node/1023773746",
        "amenity": "clinic",
        "name": "Bulegeyi",
        "source": "Dana Thompson"
      },
      "geometry": {
        "type": "Point",
        "coordinates": [
          29.0685986,
          -2.2017885
        ]
      }
    },
    {
      "type": "Feature",
      "id": "node/1023773748",
      "properties": {
        "@id": "node/1023773748",
        "amenity": "clinic",
        "name": "Bunyakiri",
        "source": "Dana Thompson"
      },
      "geometry": {
        "type": "Point",
        "coordinates": [
          29.0857182,
          -2.0021279
        ]
      }
    },
    {
      "type": "Feature",
      "id": "node/1023773752",
      "properties": {
        "@id": "node/1023773752",
        "amenity": "clinic",
        "name": "Kasihe",
        "source": "Dana Thompson"
      },
      "geometry": {
        "type": "Point",
        "coordinates": [
          29.0074382,
          -2.2168106
        ]
      }
    },
    {
      "type": "Feature",
      "id": "node/1023773756",
      "properties": {
        "@id": "node/1023773756",
        "amenity": "clinic",
        "name": "Muhyahya",
        "source": "Dana Thompson"
      },
      "geometry": {
        "type": "Point",
        "coordinates": [
          29.0323933,
          -2.1676481
        ]
      }
    },
    {
      "type": "Feature",
      "id": "node/1023773760",
      "properties": {
        "@id": "node/1023773760",
        "amenity": "clinic",
        "name": "Mafula",
        "source": "Dana Thompson"
      },
      "geometry": {
        "type": "Point",
        "coordinates": [
          29.0420859,
          -2.0957877
        ]
      }
    },
    {
      "type": "Feature",
      "id": "node/1023773761",
      "properties": {
        "@id": "node/1023773761",
        "amenity": "clinic",
        "name": "Bushonga",
        "source": "Dana Thompson"
      },
      "geometry": {
        "type": "Point",
        "coordinates": [
          29.0803877,
          -2.0144196
        ]
      }
    },
    {
      "type": "Feature",
      "id": "node/1023773762",
      "properties": {
        "@id": "node/1023773762",
        "amenity": "clinic",
        "name": "Nyakalengwa",
        "source": "Dana Thompson"
      },
      "geometry": {
        "type": "Point",
        "coordinates": [
          29.0630789,
          -2.2412145
        ]
      }
    },
    {
      "type": "Feature",
      "id": "node/1032922322",
      "properties": {
        "@id": "node/1032922322",
        "amenity": "clinic",
        "name": "קופ\"ח כללית הרצליה דרום",
        "name:en": "Clalit Herzliya Darom",
        "name:he": "קופ\"ח כללית הרצליה דרום"
      },
      "geometry": {
        "type": "Point",
        "coordinates": [
          34.8419979,
          32.1554698
        ]
      }
    },
    {
      "type": "Feature",
      "id": "node/1056803555",
      "properties": {
        "@id": "node/1056803555",
        "amenity": "clinic",
        "name": "מרכז שפיצר לשיקום",
        "name:en": "Shpizer Rehabilitation Center"
      },
      "geometry": {
        "type": "Point",
        "coordinates": [
          34.9594044,
          32.8128664
        ]
      }
    },
    {
      "type": "Feature",
      "id": "node/1068385005",
      "properties": {
        "@id": "node/1068385005",
        "amenity": "clinic",
        "name": "קופת חולים מאוחדת",
        "name:en": "Meuhedet",
        "name:he": "קופת חולים מאוחדת"
      },
      "geometry": {
        "type": "Point",
        "coordinates": [
          34.9765975,
          31.7383613
        ]
      }
    },
    {
      "type": "Feature",
      "id": "node/1068446528",
      "properties": {
        "@id": "node/1068446528",
        "amenity": "clinic",
        "name": "קופת חולים מאוחדת הנהלה",
        "name:en": "Meuhedet",
        "name:he": "קופת חולים מאוחדת הנהלה"
      },
      "geometry": {
        "type": "Point",
        "coordinates": [
          34.9783919,
          31.7376975
        ]
      }
    },
    {
      "type": "Feature",
      "id": "node/1099025179",
      "properties": {
        "@id": "node/1099025179",
        "amenity": "clinic"
      },
      "geometry": {
        "type": "Point",
        "coordinates": [
          35.7726865,
          33.3077077
        ]
      }
    },
    {
      "type": "Feature",
      "id": "node/1129525416",
      "properties": {
        "@id": "node/1129525416",
        "amenity": "clinic",
        "name": "מרכז רפואי הרצליה",
        "name:en": "Herzliya Medical Center",
        "name:he": "מרכז רפואי הרצליה"
      },
      "geometry": {
        "type": "Point",
        "coordinates": [
          34.8030468,
          32.1785314
        ]
      }
    },
    {
      "type": "Feature",
      "id": "node/1153109283",
      "properties": {
        "@id": "node/1153109283",
        "amenity": "clinic",
        "emergency": "yes",
        "name": "Etablissement public de santé de Birtouta"
      },
      "geometry": {
        "type": "Point",
        "coordinates": [
          3.0009997,
          36.6462664
        ]
      }
    },
    {
      "type": "Feature",
      "id": "node/1189093583",
      "properties": {
        "@id": "node/1189093583",
        "amenity": "clinic",
        "name": "מגן דוד אדום",
        "name:en": "Magen David Adom",
        "name:he": "מגן דוד אדום"
      },
      "geometry": {
        "type": "Point",
        "coordinates": [
          34.9907814,
          31.7491439
        ]
      }
    },
    {
      "type": "Feature",
      "id": "node/1234331104",
      "properties": {
        "@id": "node/1234331104",
        "amenity": "clinic",
        "name": "Gillyn Medical Clinic"
      },
      "geometry": {
        "type": "Point",
        "coordinates": [
          30.9940821,
          -17.8835609
        ]
      }
    },
    {
      "type": "Feature",
      "id": "node/1234331154",
      "properties": {
        "@id": "node/1234331154",
        "amenity": "clinic",
        "name": "Old Highfield Clinic"
      },
      "geometry": {
        "type": "Point",
        "coordinates": [
          30.9904719,
          -17.8896264
        ]
      }
    },
    {
      "type": "Feature",
      "id": "node/1298774593",
      "properties": {
        "@id": "node/1298774593",
        "amenity": "clinic"
      },
      "geometry": {
        "type": "Point",
        "coordinates": [
          47.0818218,
          -21.4552799
        ]
      }
    },
    {
      "type": "Feature",
      "id": "node/1305560934",
      "properties": {
        "@id": "node/1305560934",
        "amenity": "clinic",
        "name": "מכבי",
        "name:en": "Maccabi",
        "name:he": "מכבי",
        "operator": "מכבי",
        "operator:en": "Maccabi",
        "operator:he": "מכבי"
      },
      "geometry": {
        "type": "Point",
        "coordinates": [
          34.8738294,
          32.1813288
        ]
      }
    },
    {
      "type": "Feature",
      "id": "node/1323527509",
      "properties": {
        "@id": "node/1323527509",
        "amenity": "clinic",
        "name": "קופת חולים כללית",
        "name:en": "Klalit Clinic",
        "name:he": "קופת חולים כללית"
      },
      "geometry": {
        "type": "Point",
        "coordinates": [
          35.1846851,
          30.6132933
        ]
      }
    },
    {
      "type": "Feature",
      "id": "node/1332314390",
      "properties": {
        "@id": "node/1332314390",
        "amenity": "clinic",
        "name": "Polyclinique"
      },
      "geometry": {
        "type": "Point",
        "coordinates": [
          -0.3201774,
          35.8528952
        ]
      }
    },
    {
      "type": "Feature",
      "id": "node/1350040092",
      "properties": {
        "@id": "node/1350040092",
        "amenity": "clinic",
        "name": "קופת חולים מאוחדת",
        "name:en": "Me'uhedet",
        "name:he": "קופת חולים מאוחדת",
        "operator": "קופת חולים מאוחדת",
        "operator:en": "Me'uhedet",
        "operator:he": "קופת חולים מאוחדת"
      },
      "geometry": {
        "type": "Point",
        "coordinates": [
          34.8744467,
          32.1807657
        ]
      }
    },
    {
      "type": "Feature",
      "id": "node/1350040093",
      "properties": {
        "@id": "node/1350040093",
        "amenity": "clinic",
        "name": "שירותי בריאות כללית",
        "name:en": "Clalit",
        "name:he": "שירותי בריאות כללית",
        "operator": "שירותי בריאות כללית",
        "operator:en": "Clalit",
        "operator:he": "שירותי בריאות כללית"
      },
      "geometry": {
        "type": "Point",
        "coordinates": [
          34.8734542,
          32.1810107
        ]
      }
    },
    {
      "type": "Feature",
      "id": "node/1353759680",
      "properties": {
        "@id": "node/1353759680",
        "amenity": "clinic",
        "name": "مستوصف جديدة عرطوز الطبي",
        "name:en": "Jadida Artoz Clinic"
      },
      "geometry": {
        "type": "Point",
        "coordinates": [
          36.1673167,
          33.4372989
        ]
      }
    },
    {
      "type": "Feature",
      "id": "node/1391411381",
      "properties": {
        "@id": "node/1391411381",
        "amenity": "clinic",
        "name": "מכון מור",
        "name:en": "Mor Institute",
        "name:he": "מכון מור"
      },
      "geometry": {
        "type": "Point",
        "coordinates": [
          34.8249384,
          32.0916117
        ]
      }
    },
    {
      "type": "Feature",
      "id": "node/1407004651",
      "properties": {
        "@id": "node/1407004651",
        "amenity": "clinic",
        "name": "נ.א.ר.א",
        "name:en": "NARA",
        "name:he": "נ.א.ר.א",
        "website": "http://www.nara.co.il"
      },
      "geometry": {
        "type": "Point",
        "coordinates": [
          34.8223916,
          32.0911055
        ]
      }
    },
    {
      "type": "Feature",
      "id": "node/1408049108",
      "properties": {
        "@id": "node/1408049108",
        "amenity": "clinic",
        "name": "קופת חולים לאומית",
        "name:en": "Leumit clinic",
        "name:he": "קופת חולים לאומית",
        "phone": "1700507507",
        "website": "www.leumit.co.il"
      },
      "geometry": {
        "type": "Point",
        "coordinates": [
          34.890432,
          32.155718
        ]
      }
    },
    {
      "type": "Feature",
      "id": "node/1425180690",
      "properties": {
        "@id": "node/1425180690",
        "amenity": "clinic",
        "name": "קופת חולים כללית",
        "name:he": "קופת חולים כללית"
      },
      "geometry": {
        "type": "Point",
        "coordinates": [
          35.2751989,
          32.9109514
        ]
      }
    },
    {
      "type": "Feature",
      "id": "node/1439475754",
      "properties": {
        "@id": "node/1439475754",
        "amenity": "clinic",
        "health": "clinic",
        "name": "מרפאת קופת חולים לאומית",
        "name:en": "Leumit clinic",
        "name:he": "מרפאת קופת חולים לאומית"
      },
      "geometry": {
        "type": "Point",
        "coordinates": [
          35.0964658,
          32.6496692
        ]
      }
    },
    {
      "type": "Feature",
      "id": "node/1446276820",
      "properties": {
        "@id": "node/1446276820",
        "amenity": "clinic",
        "name": "مصحة عليسة",
        "name:ar": "مصحة عليسة",
        "name:fr": "Polyclinique Alyssa"
      },
      "geometry": {
        "type": "Point",
        "coordinates": [
          10.2450377,
          36.8406683
        ]
      }
    },
    {
      "type": "Feature",
      "id": "node/1451131104",
      "properties": {
        "@id": "node/1451131104",
        "amenity": "clinic",
        "name": "מכבי",
        "name:en": "Maccabi",
        "name:he": "מכבי"
      },
      "geometry": {
        "type": "Point",
        "coordinates": [
          34.7644246,
          32.0148317
        ]
      }
    },
    {
      "type": "Feature",
      "id": "node/1457686762",
      "properties": {
        "@id": "node/1457686762",
        "amenity": "clinic",
        "name": "Huruma medical center"
      },
      "geometry": {
        "type": "Point",
        "coordinates": [
          39.5733675,
          -4.3164933
        ]
      }
    },
    {
      "type": "Feature",
      "id": "node/1457762149",
      "properties": {
        "@id": "node/1457762149",
        "amenity": "clinic",
        "name": "Ukunda Medical Clinic"
      },
      "geometry": {
        "type": "Point",
        "coordinates": [
          39.5657503,
          -4.2847787
        ]
      }
    },
    {
      "type": "Feature",
      "id": "node/1457775334",
      "properties": {
        "@id": "node/1457775334",
        "amenity": "clinic",
        "name": "Elisha Medical Clinic"
      },
      "geometry": {
        "type": "Point",
        "coordinates": [
          39.5630696,
          -4.2945303
        ]
      }
    },
    {
      "type": "Feature",
      "id": "node/1458463455",
      "properties": {
        "@id": "node/1458463455",
        "amenity": "clinic",
        "name": "Pendo Medical Clinic"
      },
      "geometry": {
        "type": "Point",
        "coordinates": [
          39.5672286,
          -4.28059
        ]
      }
    },
    {
      "type": "Feature",
      "id": "node/1482572903",
      "properties": {
        "@id": "node/1482572903",
        "amenity": "clinic",
        "emergency": "no",
        "name": "Centre de santé baba ali"
      },
      "geometry": {
        "type": "Point",
        "coordinates": [
          3.0492729,
          36.6710764
        ]
      }
    },
    {
      "type": "Feature",
      "id": "node/1498554769",
      "properties": {
        "@id": "node/1498554769",
        "amenity": "clinic",
        "name": "Lucky Clinic"
      },
      "geometry": {
        "type": "Point",
        "coordinates": [
          32.6234481,
          0.2996638
        ]
      }
    },
    {
      "type": "Feature",
      "id": "node/1498577443",
      "properties": {
        "@id": "node/1498577443",
        "amenity": "clinic",
        "name": "Arise and Shine Medical Clinic"
      },
      "geometry": {
        "type": "Point",
        "coordinates": [
          32.6215355,
          0.301181
        ]
      }
    },
    {
      "type": "Feature",
      "id": "node/1498582165",
      "properties": {
        "@id": "node/1498582165",
        "amenity": "clinic",
        "name": "St James' Clinic"
      },
      "geometry": {
        "type": "Point",
        "coordinates": [
          32.6213344,
          0.3013582
        ]
      }
    },
    {
      "type": "Feature",
      "id": "node/1498586602",
      "properties": {
        "@id": "node/1498586602",
        "amenity": "clinic",
        "name": "Cure Medical Clinic"
      },
      "geometry": {
        "type": "Point",
        "coordinates": [
          32.6220844,
          0.3008011
        ]
      }
    },
    {
      "type": "Feature",
      "id": "node/1519761992",
      "properties": {
        "@id": "node/1519761992",
        "amenity": "clinic"
      },
      "geometry": {
        "type": "Point",
        "coordinates": [
          14.5552866,
          35.8334695
        ]
      }
    },
    {
      "type": "Feature",
      "id": "node/1546447404",
      "properties": {
        "@id": "node/1546447404",
        "addr:housenumber": "25",
        "addr:street": "אורי צבי גרינברג",
        "amenity": "clinic",
        "fixme": "name is unknown",
        "name": "מכבי",
        "name:en": "Macabbi",
        "name:he": "מכבי",
        "operator": "מכבי"
      },
      "geometry": {
        "type": "Point",
        "coordinates": [
          34.7922467,
          32.1301897
        ]
      }
    },
    {
      "type": "Feature",
      "id": "node/1563750903",
      "properties": {
        "@id": "node/1563750903",
        "amenity": "clinic",
        "emergency": "yes",
        "name": "קופת חולים מכבי",
        "name:en": "Maccabi Clinic",
        "name:he": "קופת חולים מכבי",
        "note": "Open 24/7",
        "phone": "1-599-520-520 ext 3",
        "rentgen": "yes",
        "ultrasound": "yes"
      },
      "geometry": {
        "type": "Point",
        "coordinates": [
          35.0076046,
          31.9056144
        ]
      }
    },
    {
      "type": "Feature",
      "id": "node/1596072407",
      "properties": {
        "@id": "node/1596072407",
        "amenity": "clinic",
        "name": "Goodhope Health Care"
      },
      "geometry": {
        "type": "Point",
        "coordinates": [
          32.6122734,
          0.3066563
        ]
      }
    },
    {
      "type": "Feature",
      "id": "node/1598668959",
      "properties": {
        "@id": "node/1598668959",
        "amenity": "clinic"
      },
      "geometry": {
        "type": "Point",
        "coordinates": [
          32.614893,
          0.303079
        ]
      }
    },
    {
      "type": "Feature",
      "id": "node/1606326483",
      "properties": {
        "@id": "node/1606326483",
        "amenity": "clinic",
        "name": "קופת חולים שייח' ג'ראח",
        "name:ar": "مركز شيخ جراح الطبي - كلاليت",
        "name:en": "Sheikh Jarrah Medical center"
      },
      "geometry": {
        "type": "Point",
        "coordinates": [
          35.2335792,
          31.795905
        ]
      }
    },
    {
      "type": "Feature",
      "id": "node/1624189616",
      "properties": {
        "@id": "node/1624189616",
        "amenity": "clinic",
        "emergency": "yes",
        "name": "Polyclinique étaticque"
      },
      "geometry": {
        "type": "Point",
        "coordinates": [
          3.2785626,
          36.7372017
        ]
      }
    },
    {
      "type": "Feature",
      "id": "node/1624220095",
      "properties": {
        "@id": "node/1624220095",
        "amenity": "clinic",
        "name": "Clinique Lotus"
      },
      "geometry": {
        "type": "Point",
        "coordinates": [
          3.2768176,
          36.7424423
        ]
      }
    },
    {
      "type": "Feature",
      "id": "node/1655899474",
      "properties": {
        "@id": "node/1655899474",
        "amenity": "clinic",
        "name": "Mola Medical Center"
      },
      "geometry": {
        "type": "Point",
        "coordinates": [
          32.3000704,
          2.7725672
        ]
      }
    },
    {
      "type": "Feature",
      "id": "node/1660640541",
      "properties": {
        "@id": "node/1660640541",
        "amenity": "clinic"
      },
      "geometry": {
        "type": "Point",
        "coordinates": [
          30.9134724,
          3.028125
        ]
      }
    },
    {
      "type": "Feature",
      "id": "node/1664041159",
      "properties": {
        "@id": "node/1664041159",
        "amenity": "clinic",
        "name": "Judah Africa, Clinic"
      },
      "geometry": {
        "type": "Point",
        "coordinates": [
          27.9643668,
          -26.0230994
        ]
      }
    },
    {
      "type": "Feature",
      "id": "node/1672234777",
      "properties": {
        "@id": "node/1672234777",
        "amenity": "clinic",
        "name": "תחנת מד\"א",
        "name:en": "Magen David Adom",
        "name:he": "תחנת מד\"א"
      },
      "geometry": {
        "type": "Point",
        "coordinates": [
          34.8046278,
          31.894844
        ]
      }
    },
    {
      "type": "Feature",
      "id": "node/1735590535",
      "properties": {
        "@id": "node/1735590535",
        "amenity": "clinic",
        "name": "African Patitative Care Association"
      },
      "geometry": {
        "type": "Point",
        "coordinates": [
          32.5854815,
          0.2800669
        ]
      }
    },
    {
      "type": "Feature",
      "id": "node/1745738482",
      "properties": {
        "@id": "node/1745738482",
        "amenity": "clinic",
        "name": "לאומית",
        "name:en": "Le'umit",
        "name:he": "לאומית"
      },
      "geometry": {
        "type": "Point",
        "coordinates": [
          35.1737644,
          31.786044
        ]
      }
    },
    {
      "type": "Feature",
      "id": "node/1745778343",
      "properties": {
        "@id": "node/1745778343",
        "amenity": "clinic",
        "designation": "centre de santé Bellaire",
        "name": "Centre de santé bel air",
        "wheelchair": "yes"
      },
      "geometry": {
        "type": "Point",
        "coordinates": [
          5.4022544,
          36.199147
        ]
      }
    },
    {
      "type": "Feature",
      "id": "node/1746148216",
      "properties": {
        "@id": "node/1746148216",
        "amenity": "clinic",
        "name": "כללית",
        "name:en": "Klalit",
        "name:he": "כללית",
        "operator": "כללית"
      },
      "geometry": {
        "type": "Point",
        "coordinates": [
          34.7643706,
          32.0104395
        ]
      }
    },
    {
      "type": "Feature",
      "id": "node/1756489406",
      "properties": {
        "@id": "node/1756489406",
        "amenity": "clinic",
        "name": "קופת חולים כללית",
        "name:en": "Clalit clinic",
        "name:he": "קופת חולים כללית",
        "opening_hours": "Su-Fr 08:30-20:00"
      },
      "geometry": {
        "type": "Point",
        "coordinates": [
          35.687577,
          32.7984481
        ]
      }
    },
    {
      "type": "Feature",
      "id": "node/1758968551",
      "properties": {
        "@id": "node/1758968551",
        "amenity": "clinic",
        "contact:website": "www.maccabi4u.co.il",
        "name": "מכבי",
        "name:en": "Maccabi",
        "name:he": "מכבי",
        "operator": "מכבי",
        "operator:en": "Maccabi",
        "operator:he": "מכבי",
        "wheelchair": "yes"
      },
      "geometry": {
        "type": "Point",
        "coordinates": [
          34.7577302,
          32.02065
        ]
      }
    },
    {
      "type": "Feature",
      "id": "node/1762080645",
      "properties": {
        "@id": "node/1762080645",
        "amenity": "clinic"
      },
      "geometry": {
        "type": "Point",
        "coordinates": [
          -0.0397182,
          5.6865054
        ]
      }
    },
    {
      "type": "Feature",
      "id": "node/1766961681",
      "properties": {
        "@id": "node/1766961681",
        "amenity": "clinic",
        "contact:website": "http://www.clalit.co.il/",
        "name": "כללית",
        "name:en": "Clalit",
        "name:he": "כללית",
        "operator": "כללית",
        "operator:en": "Clalit",
        "operator:he": "כללית"
      },
      "geometry": {
        "type": "Point",
        "coordinates": [
          34.7635317,
          32.0042112
        ]
      }
    },
    {
      "type": "Feature",
      "id": "node/1769474661",
      "properties": {
        "@id": "node/1769474661",
        "amenity": "clinic"
      },
      "geometry": {
        "type": "Point",
        "coordinates": [
          35.6082558,
          33.2408741
        ]
      }
    },
    {
      "type": "Feature",
      "id": "node/1773916863",
      "properties": {
        "@id": "node/1773916863",
        "addr:city": "Machico",
        "addr:country": "PT",
        "addr:housename": "Edifício Paz",
        "addr:housenumber": "R/C I",
        "addr:postcode": "9200-087",
        "addr:street": "Rua do Ribeirinho",
        "amenity": "clinic",
        "fax": "00351 291 964 370",
        "name": "Policlínica de Machico, Lda.",
        "opening_hours": "Mo-Fr 08:30-20:00",
        "phone": "00351291 969 100"
      },
      "geometry": {
        "type": "Point",
        "coordinates": [
          -16.7663649,
          32.717061
        ]
      }
    },
    {
      "type": "Feature",
      "id": "node/1789862587",
      "properties": {
        "@id": "node/1789862587",
        "amenity": "clinic",
        "name": "Holy Family Clinic"
      },
      "geometry": {
        "type": "Point",
        "coordinates": [
          32.6005807,
          0.3076073
        ]
      }
    },
    {
      "type": "Feature",
      "id": "node/1815626121",
      "properties": {
        "@id": "node/1815626121",
        "amenity": "clinic",
        "name": "Clínica Saluvi"
      },
      "geometry": {
        "type": "Point",
        "coordinates": [
          -4.0488612,
          37.1991782
        ]
      }
    },
    {
      "type": "Feature",
      "id": "node/1879353687",
      "properties": {
        "@id": "node/1879353687",
        "amenity": "clinic",
        "name": "polyclinique diascan plus"
      },
      "geometry": {
        "type": "Point",
        "coordinates": [
          2.8894389,
          36.7539317
        ]
      }
    },
    {
      "type": "Feature",
      "id": "node/1886617218",
      "properties": {
        "@id": "node/1886617218",
        "amenity": "clinic",
        "name": "Polyclinique"
      },
      "geometry": {
        "type": "Point",
        "coordinates": [
          2.8899838,
          36.7517669
        ]
      }
    },
    {
      "type": "Feature",
      "id": "node/1919300432",
      "properties": {
        "@id": "node/1919300432",
        "address": "chansa",
        "amenity": "clinic",
        "catchment_population": "2522",
        "ele": "194.0",
        "grid_proximity": "grid_further_500_m",
        "health_facility:beds": "0",
        "health_facility:patients_per_day": "7",
        "health_facility_type": "CHPS",
        "is_in:district": "builsa",
        "is_in:region": "upper_east",
        "is_in:village": "chansa",
        "name": "Chansa CHPS",
        "owner": "gov_nat_fed",
        "power_supply": "solar",
        "source": "MVP,Columbia University",
        "source:date": "2012-02-15",
        "source:ele": "gps"
      },
      "geometry": {
        "type": "Point",
        "coordinates": [
          -1.192668,
          10.5726862
        ]
      }
    },
    {
      "type": "Feature",
      "id": "node/1919300445",
      "properties": {
        "@id": "node/1919300445",
        "address": "Gbedembilisi road",
        "amenity": "clinic",
        "catchment_population": "860",
        "ele": "144.60000610351563",
        "grid_proximity": "grid_further_500_m",
        "health_facility:beds": "1",
        "health_facility:patients_per_day": "5",
        "health_facility_type": "CHPS",
        "is_in:district": "builsa",
        "is_in:region": "upper_east",
        "is_in:village": "gbedembilisi",
        "name": "Gbedembilisi CHPS",
        "owner": "gov_lower_level",
        "power_supply": "solar",
        "source": "MVP,Columbia University",
        "source:date": "2012-02-14",
        "source:ele": "gps"
      },
      "geometry": {
        "type": "Point",
        "coordinates": [
          -1.2466083,
          10.327591
        ]
      }
    },
    {
      "type": "Feature",
      "id": "node/1919300474",
      "properties": {
        "@id": "node/1919300474",
        "address": "Kpasinkpe",
        "amenity": "clinic",
        "catchment_population": "22931",
        "ele": "120.80000305175781",
        "grid_proximity": "connected_to_grid",
        "health_facility:beds": "2",
        "health_facility:patients_per_day": "25",
        "health_facility_type": "Health Centre",
        "is_in:district": "west_mamprusi",
        "is_in:region": "northern",
        "is_in:village": "kpasenkpe",
        "name": "Kpasinkpe Health Centre",
        "owner": "gov_nat_fed",
        "power_supply": "solar",
        "source": "MVP,Columbia University",
        "source:date": "2012-02-10",
        "source:ele": "gps"
      },
      "geometry": {
        "type": "Point",
        "coordinates": [
          -1.0469692,
          10.447105
        ]
      }
    },
    {
      "type": "Feature",
      "id": "node/1919300483",
      "properties": {
        "@id": "node/1919300483",
        "address": "xxx",
        "amenity": "clinic",
        "catchment_population": "3214",
        "ele": "193.3000030517578",
        "grid_proximity": "grid_further_500_m",
        "health_facility:beds": "0",
        "health_facility:patients_per_day": "15",
        "health_facility_type": "CHPS",
        "is_in:district": "builsa",
        "is_in:region": "northern",
        "is_in:village": "uwasi_kazengsa_jinigsa",
        "name": "Uwasa CHPS",
        "owner": "gov_lower_level",
        "power_supply": "solar",
        "source": "MVP,Columbia University",
        "source:date": "2012-02-13",
        "source:ele": "gps"
      },
      "geometry": {
        "type": "Point",
        "coordinates": [
          -1.2284805,
          10.480188
        ]
      }
    },
    {
      "type": "Feature",
      "id": "node/1919300503",
      "properties": {
        "@id": "node/1919300503",
        "address": "Maabe",
        "amenity": "clinic",
        "catchment_population": "1580",
        "ele": "178.0",
        "grid_proximity": "grid_further_500_m",
        "health_facility:beds": "0",
        "health_facility:patients_per_day": "7",
        "health_facility_type": "CHPS",
        "is_in:district": "builsa",
        "is_in:region": "upper_east",
        "is_in:village": "wiesi_jiniesa",
        "name": "Wiesi CHPS",
        "owner": "gov_lower_level",
        "power_supply": "solar",
        "source": "MVP,Columbia University",
        "source:date": "2012-02-14",
        "source:ele": "gps"
      },
      "geometry": {
        "type": "Point",
        "coordinates": [
          -1.3360766,
          10.3687564
        ]
      }
    },
    {
      "type": "Feature",
      "id": "node/1956044872",
      "properties": {
        "@id": "node/1956044872",
        "amenity": "clinic",
        "health_facility": "clinic",
        "name": "DMZ Medical Center",
        "note": "\"amenity:clinic\" would suit better but is yet just a draft."
      },
      "geometry": {
        "type": "Point",
        "coordinates": [
          35.3648865,
          31.199709
        ]
      }
    },
    {
      "type": "Feature",
      "id": "node/1960254206",
      "properties": {
        "@id": "node/1960254206",
        "amenity": "clinic"
      },
      "geometry": {
        "type": "Point",
        "coordinates": [
          35.0774233,
          32.5066083
        ]
      }
    },
    {
      "type": "Feature",
      "id": "node/2031724422",
      "properties": {
        "@id": "node/2031724422",
        "amenity": "clinic",
        "name": "ABC Clinic"
      },
      "geometry": {
        "type": "Point",
        "coordinates": [
          33.7415478,
          -13.9683411
        ]
      }
    },
    {
      "type": "Feature",
      "id": "node/2064844696",
      "properties": {
        "@id": "node/2064844696",
        "amenity": "clinic",
        "name": "קופת חולים כללית",
        "operator": "כללית"
      },
      "geometry": {
        "type": "Point",
        "coordinates": [
          34.8838038,
          32.0817784
        ]
      }
    },
    {
      "type": "Feature",
      "id": "node/2065344423",
      "properties": {
        "@id": "node/2065344423",
        "amenity": "clinic",
        "name": "קופת חולים כללית",
        "name:en": "Klalit clinic",
        "name:he": "קופת חולים כללית",
        "operator": "כללית"
      },
      "geometry": {
        "type": "Point",
        "coordinates": [
          34.738662,
          31.8751046
        ]
      }
    },
    {
      "type": "Feature",
      "id": "node/2118045280",
      "properties": {
        "@id": "node/2118045280",
        "amenity": "clinic",
        "name": "מכבי",
        "name:en": "Maccabi",
        "name:he": "מכבי",
        "operator": "מכבי"
      },
      "geometry": {
        "type": "Point",
        "coordinates": [
          34.7627022,
          32.0207856
        ]
      }
    },
    {
      "type": "Feature",
      "id": "node/2118628069",
      "properties": {
        "@id": "node/2118628069",
        "addr:city": "Kolea",
        "addr:housenumber": "19",
        "addr:postcode": "42400",
        "addr:street": "Rue Mohamed Belheouane",
        "amenity": "clinic",
        "name": "Centre d'imagerie médicale Bounatiro",
        "phone": "024381236"
      },
      "geometry": {
        "type": "Point",
        "coordinates": [
          2.7645917,
          36.6381167
        ]
      }
    },
    {
      "type": "Feature",
      "id": "node/2123570520",
      "properties": {
        "@id": "node/2123570520",
        "amenity": "clinic",
        "name": "המרפאה הקהילתית לבריאות הנפש"
      },
      "geometry": {
        "type": "Point",
        "coordinates": [
          34.7662442,
          32.0199177
        ]
      }
    },
    {
      "type": "Feature",
      "id": "node/2134290926",
      "properties": {
        "@id": "node/2134290926",
        "amenity": "clinic",
        "name": "לאומית",
        "operator": "לאומית"
      },
      "geometry": {
        "type": "Point",
        "coordinates": [
          34.8097572,
          32.0530466
        ]
      }
    },
    {
      "type": "Feature",
      "id": "node/2134394086",
      "properties": {
        "@id": "node/2134394086",
        "amenity": "clinic"
      },
      "geometry": {
        "type": "Point",
        "coordinates": [
          33.9754353,
          28.5560155
        ]
      }
    },
    {
      "type": "Feature",
      "id": "node/2145127947",
      "properties": {
        "@id": "node/2145127947",
        "amenity": "clinic",
        "name": "קופת חולים כללית",
        "name:en": "Clalit clinic",
        "name:he": "קופת חולים כללית"
      },
      "geometry": {
        "type": "Point",
        "coordinates": [
          34.8889016,
          32.2712722
        ]
      }
    },
    {
      "type": "Feature",
      "id": "node/2153341168",
      "properties": {
        "@id": "node/2153341168",
        "amenity": "clinic"
      },
      "geometry": {
        "type": "Point",
        "coordinates": [
          34.748608,
          32.0281474
        ]
      }
    },
    {
      "type": "Feature",
      "id": "node/2157549632",
      "properties": {
        "@id": "node/2157549632",
        "amenity": "clinic",
        "fixme": "Position should be revised",
        "health_facility:type": "CSRef",
        "is_in:cercle": "Abeibara",
        "name": "CSREF d'Abeibara",
        "pcode": "ML09R02C000",
        "source": "OMS Survey",
        "start_date": "1-Jan-2000",
        "who:code_csref": "ML09R02",
        "who:distance": "150",
        "who:nbre_village": "0"
      },
      "geometry": {
        "type": "Point",
        "coordinates": [
          1.8445861,
          19.3489738
        ]
      }
    },
    {
      "type": "Feature",
      "id": "node/2157549633",
      "properties": {
        "@id": "node/2157549633",
        "amenity": "clinic",
        "fixme": "Approx. location : should be verified",
        "health_facility:type": "CSRef",
        "is_in:cercle": "Bourem",
        "name": "Centre de Santé de Référence de Bourem",
        "pcode": "ML07R03C000",
        "source": "OMS Survey",
        "start_date": "1-Jan-2011",
        "who:code_csref": "ML07R03",
        "who:distance": "95",
        "who:nbre_village": "0"
      },
      "geometry": {
        "type": "Point",
        "coordinates": [
          -0.3511215,
          16.9534325
        ]
      }
    },
    {
      "type": "Feature",
      "id": "node/2157549635",
      "properties": {
        "@id": "node/2157549635",
        "amenity": "clinic",
        "fixme": "Location approximate",
        "health_facility:type": "CSRef",
        "is_in:cercle": "Kidal",
        "name": "Centre de Santé de Référence de Kidal",
        "pcode": "ML09R01C000",
        "source": "OMS Survey",
        "start_date": "1-Jan-2006",
        "who:code_csref": "ML09R01",
        "who:distance": "260",
        "who:nbre_village": "0"
      },
      "geometry": {
        "type": "Point",
        "coordinates": [
          1.401567,
          18.4376935
        ]
      }
    },
    {
      "type": "Feature",
      "id": "node/2157549638",
      "properties": {
        "@id": "node/2157549638",
        "amenity": "clinic",
        "fixme": "Approx. location : should be verified",
        "health_facility:type": "CSRef",
        "is_in:cercle": "Tin-Essako",
        "name": "CSREF de Tin-Essako",
        "pcode": "ML09R04C000",
        "source": "OMS Survey",
        "start_date": "1-Jan-2000",
        "who:code_csref": "ML09R04",
        "who:distance": "150",
        "who:nbre_village": "0"
      },
      "geometry": {
        "type": "Point",
        "coordinates": [
          2.4909436,
          18.4522737
        ]
      }
    },
    {
      "type": "Feature",
      "id": "node/2157797789",
      "properties": {
        "@id": "node/2157797789",
        "amenity": "clinic",
        "fixme": "Approx. location : should be verified",
        "health_facility:type": "CSRef",
        "is_in:cercle": "Goundam",
        "name": "Centre de Santé de Référence de Goundam",
        "pcode": "ML06R03C000",
        "source": "OMS Survey",
        "start_date": "1-Jan-2005",
        "who:code_csref": "ML06R03",
        "who:distance": "85",
        "who:nbre_village": "0"
      },
      "geometry": {
        "type": "Point",
        "coordinates": [
          -3.66222,
          16.41778
        ]
      }
    },
    {
      "type": "Feature",
      "id": "node/2157890078",
      "properties": {
        "@id": "node/2157890078",
        "amenity": "clinic",
        "name": "כללית",
        "name:en": "Klalit",
        "name:he": "כללית",
        "opening_hours": "07:00-20:00"
      },
      "geometry": {
        "type": "Point",
        "coordinates": [
          34.7467186,
          32.0271934
        ]
      }
    },
    {
      "type": "Feature",
      "id": "node/2158443110",
      "properties": {
        "@id": "node/2158443110",
        "amenity": "clinic",
        "fixme": "Approx. location : should be verified",
        "health_facility:type": "CSRef",
        "is_in:cercle": "Kadiolo",
        "name": "Centre de Santé de Référence de Kadiolo",
        "pcode": "ML03R03C000",
        "source": "OMS Survey",
        "start_date": "1-Apr-1999",
        "who:code_csref": "ML03R03",
        "who:distance": "110",
        "who:nbre_village": "0"
      },
      "geometry": {
        "type": "Point",
        "coordinates": [
          -5.7621084,
          10.5521808
        ]
      }
    },
    {
      "type": "Feature",
      "id": "node/2158443115",
      "properties": {
        "@id": "node/2158443115",
        "amenity": "clinic",
        "fixme": "Approx. location : should be verified",
        "health_facility:type": "CSRef",
        "is_in:cercle": "Kolokani",
        "name": "Centre de Santé de Référence de Kolokani",
        "pcode": "ML02R07C000",
        "source": "OMS Survey",
        "start_date": "3-Aug-1996",
        "who:code_csref": "ML02R07",
        "who:distance": "120",
        "who:nbre_village": "0"
      },
      "geometry": {
        "type": "Point",
        "coordinates": [
          -8.0347204,
          13.5711767
        ]
      }
    },
    {
      "type": "Feature",
      "id": "node/2158443160",
      "properties": {
        "@id": "node/2158443160",
        "amenity": "clinic",
        "fixme": "Approx. location : should be verified",
        "health_facility:type": "CSRef",
        "is_in:cercle": "Douentza",
        "name": "Centre de Santé de Référence de Douentza",
        "pcode": "ML05R05C000",
        "source": "OMS Survey",
        "start_date": "1-Jan-1999",
        "who:code_csref": "ML05R05",
        "who:distance": "175",
        "who:nbre_village": "0"
      },
      "geometry": {
        "type": "Point",
        "coordinates": [
          -2.9501025,
          15.0000097
        ]
      }
    },
    {
      "type": "Feature",
      "id": "node/2158443178",
      "properties": {
        "@id": "node/2158443178",
        "amenity": "clinic",
        "fixme": "Approx. location : should be verified",
        "health_facility:type": "CSRef",
        "is_in:cercle": "Kita",
        "name": "Centre de Santé de Référence de Kita",
        "pcode": "ML01R05C000",
        "source": "OMS Survey",
        "start_date": "1-Jan-1990",
        "who:code_csref": "ML01R05",
        "who:distance": "178",
        "who:nbre_village": "0"
      },
      "geometry": {
        "type": "Point",
        "coordinates": [
          -9.4833806,
          13.0167431
        ]
      }
    },
    {
      "type": "Feature",
      "id": "node/2158443192",
      "properties": {
        "@id": "node/2158443192",
        "amenity": "clinic",
        "fixme": "Approx. location : should be verified",
        "health_facility:type": "CSRef",
        "is_in:cercle": "Niono",
        "name": "Centre de Santé de Référence de Niono",
        "pcode": "ML04R06C000",
        "source": "OMS Survey",
        "start_date": "1-Jan-2001",
        "who:code_csref": "ML04R06",
        "who:distance": "110",
        "who:nbre_village": "0"
      },
      "geometry": {
        "type": "Point",
        "coordinates": [
          -5.98338,
          14.25004
        ]
      }
    },
    {
      "type": "Feature",
      "id": "node/2163838598",
      "properties": {
        "@id": "node/2163838598",
        "amenity": "clinic",
        "fixme": "Approx. Location : should be revised!",
        "name": "ABEIBARA clinic"
      },
      "geometry": {
        "type": "Point",
        "coordinates": [
          1.84468,
          19.3491383
        ]
      }
    },
    {
      "type": "Feature",
      "id": "node/2163838600",
      "properties": {
        "@id": "node/2163838600",
        "amenity": "clinic",
        "fixme": "Approx. Location : should be revised!",
        "name": "ALLAMA"
      },
      "geometry": {
        "type": "Point",
        "coordinates": [
          -8.01583,
          12.74556
        ]
      }
    },
    {
      "type": "Feature",
      "id": "node/2163838605",
      "properties": {
        "@id": "node/2163838605",
        "amenity": "clinic",
        "fixme": "Approx. Location : should be revised!",
        "name": "ANSONGO clinic"
      },
      "geometry": {
        "type": "Point",
        "coordinates": [
          0.5014909,
          15.665333
        ]
      }
    },
    {
      "type": "Feature",
      "id": "node/2163838618",
      "properties": {
        "@id": "node/2163838618",
        "amenity": "clinic",
        "fixme": "Approx. Location : should be revised!",
        "name": "BANAMBA clinic"
      },
      "geometry": {
        "type": "Point",
        "coordinates": [
          -7.4335517,
          13.5500367
        ]
      }
    },
    {
      "type": "Feature",
      "id": "node/2163838619",
      "properties": {
        "@id": "node/2163838619",
        "amenity": "clinic",
        "fixme": "Approx. Location : should be revised!",
        "name": "BANDIAGARA clinic"
      },
      "geometry": {
        "type": "Point",
        "coordinates": [
          -3.6000519,
          14.3335958
        ]
      }
    },
    {
      "type": "Feature",
      "id": "node/2163838620",
      "properties": {
        "@id": "node/2163838620",
        "amenity": "clinic",
        "fixme": "Approx. Location : should be revised!",
        "name": "BANKASS clinic"
      },
      "geometry": {
        "type": "Point",
        "coordinates": [
          -3.5166811,
          14.066895
        ]
      }
    },
    {
      "type": "Feature",
      "id": "node/2163838621",
      "properties": {
        "@id": "node/2163838621",
        "amenity": "clinic",
        "fixme": "Approx. Location : should be revised!",
        "name": "BARA SOW"
      },
      "geometry": {
        "type": "Point",
        "coordinates": [
          -7.97684,
          12.56682
        ]
      }
    },
    {
      "type": "Feature",
      "id": "node/2163838628",
      "properties": {
        "@id": "node/2163838628",
        "amenity": "clinic",
        "fixme": "Approx. Location : should be revised!",
        "name": "BIOTECH"
      },
      "geometry": {
        "type": "Point",
        "coordinates": [
          -8.00704,
          12.60019
        ]
      }
    },
    {
      "type": "Feature",
      "id": "node/2163838629",
      "properties": {
        "@id": "node/2163838629",
        "amenity": "clinic",
        "fixme": "Approx. Location : should be revised!",
        "name": "BLA clinic"
      },
      "geometry": {
        "type": "Point",
        "coordinates": [
          -5.75022,
          12.93358
        ]
      }
    },
    {
      "type": "Feature",
      "id": "node/2163838632",
      "properties": {
        "@id": "node/2163838632",
        "amenity": "clinic",
        "fixme": "Approx. Location : should be revised!",
        "name": "BOUGOUNI clinic"
      },
      "geometry": {
        "type": "Point",
        "coordinates": [
          -7.4870312,
          11.4180866
        ]
      }
    },
    {
      "type": "Feature",
      "id": "node/2163838633",
      "properties": {
        "@id": "node/2163838633",
        "amenity": "clinic",
        "fixme": "Approx. Location : should be revised!",
        "name": "BOUREM clinic"
      },
      "geometry": {
        "type": "Point",
        "coordinates": [
          -0.3538889,
          16.9533333
        ]
      }
    },
    {
      "type": "Feature",
      "id": "node/2163838636",
      "properties": {
        "@id": "node/2163838636",
        "amenity": "clinic",
        "fixme": "Approx. Location : should be revised!",
        "name": "Bakary Katilé"
      },
      "geometry": {
        "type": "Point",
        "coordinates": [
          -6.00001,
          14.65001
        ]
      }
    },
    {
      "type": "Feature",
      "id": "node/2163838641",
      "properties": {
        "@id": "node/2163838641",
        "amenity": "clinic",
        "fixme": "Approx. Location : should be revised!",
        "name": "C M I E"
      },
      "geometry": {
        "type": "Point",
        "coordinates": [
          -6.26677,
          13.43339
        ]
      }
    },
    {
      "type": "Feature",
      "id": "node/2163838649",
      "properties": {
        "@id": "node/2163838649",
        "amenity": "clinic",
        "fixme": "Approx. Location : should be revised!",
        "name": "CIBSSK"
      },
      "geometry": {
        "type": "Point",
        "coordinates": [
          -7.5335197,
          12.8669439
        ]
      }
    },
    {
      "type": "Feature",
      "id": "node/2163838651",
      "properties": {
        "@id": "node/2163838651",
        "amenity": "clinic",
        "fixme": "Approx. Location : should be revised!",
        "name": "CMA"
      },
      "geometry": {
        "type": "Point",
        "coordinates": [
          -5.06669,
          13.13352
        ]
      }
    },
    {
      "type": "Feature",
      "id": "node/2163838654",
      "properties": {
        "@id": "node/2163838654",
        "amenity": "clinic",
        "fixme": "Approx. Location : should be revised!",
        "name": "CMIE  - Chemin de Fer"
      },
      "geometry": {
        "type": "Point",
        "coordinates": [
          -11.42823,
          14.46979
        ]
      }
    },
    {
      "type": "Feature",
      "id": "node/2163838655",
      "properties": {
        "@id": "node/2163838655",
        "amenity": "clinic",
        "fixme": "Approx. Location : should be revised!",
        "name": "CMIE  - Sikasso"
      },
      "geometry": {
        "type": "Point",
        "coordinates": [
          -5.90781,
          10.95662
        ]
      }
    },
    {
      "type": "Feature",
      "id": "node/2163838656",
      "properties": {
        "@id": "node/2163838656",
        "amenity": "clinic",
        "fixme": "Approx. Location : should be revised!",
        "name": "CMIE - Bougouni"
      },
      "geometry": {
        "type": "Point",
        "coordinates": [
          -7.47783,
          11.42287
        ]
      }
    },
    {
      "type": "Feature",
      "id": "node/2163838657",
      "properties": {
        "@id": "node/2163838657",
        "amenity": "clinic",
        "fixme": "Approx. Location : should be revised!",
        "name": "CMIE - Commune5"
      },
      "geometry": {
        "type": "Point",
        "coordinates": [
          -8.00223,
          12.60697
        ]
      }
    },
    {
      "type": "Feature",
      "id": "node/2163838658",
      "properties": {
        "@id": "node/2163838658",
        "amenity": "clinic",
        "fixme": "Approx. Location : should be revised!",
        "name": "CMIE - Gao"
      },
      "geometry": {
        "type": "Point",
        "coordinates": [
          -0.091,
          16.34272
        ]
      }
    },
    {
      "type": "Feature",
      "id": "node/2163838659",
      "properties": {
        "@id": "node/2163838659",
        "amenity": "clinic",
        "fixme": "Approx. Location : should be revised!",
        "name": "CMIE - Kati"
      },
      "geometry": {
        "type": "Point",
        "coordinates": [
          -8.03364,
          12.63037
        ]
      }
    },
    {
      "type": "Feature",
      "id": "node/2163838660",
      "properties": {
        "@id": "node/2163838660",
        "amenity": "clinic",
        "fixme": "Approx. Location : should be revised!",
        "name": "CMIE - Kayes"
      },
      "geometry": {
        "type": "Point",
        "coordinates": [
          -11.42723,
          14.46979
        ]
      }
    },
    {
      "type": "Feature",
      "id": "node/2163838661",
      "properties": {
        "@id": "node/2163838661",
        "amenity": "clinic",
        "fixme": "Approx. Location : should be revised!",
        "name": "CMIE - Kita"
      },
      "geometry": {
        "type": "Point",
        "coordinates": [
          -9.47413,
          13.03525
        ]
      }
    },
    {
      "type": "Feature",
      "id": "node/2163838662",
      "properties": {
        "@id": "node/2163838662",
        "amenity": "clinic",
        "fixme": "Approx. Location : should be revised!",
        "name": "CMIE - Koulikoro"
      },
      "geometry": {
        "type": "Point",
        "coordinates": [
          -7.56654,
          12.8934
        ]
      }
    },
    {
      "type": "Feature",
      "id": "node/2163838663",
      "properties": {
        "@id": "node/2163838663",
        "amenity": "clinic",
        "fixme": "Approx. Location : should be revised!",
        "name": "CMIE - Koutiala"
      },
      "geometry": {
        "type": "Point",
        "coordinates": [
          -5.47027,
          12.39055
        ]
      }
    },
    {
      "type": "Feature",
      "id": "node/2163838664",
      "properties": {
        "@id": "node/2163838664",
        "amenity": "clinic",
        "fixme": "Approx. Location : should be revised!",
        "name": "CMIE - Mopti"
      },
      "geometry": {
        "type": "Point",
        "coordinates": [
          -4.195699,
          14.5167413
        ]
      }
    },
    {
      "type": "Feature",
      "id": "node/2163838665",
      "properties": {
        "@id": "node/2163838665",
        "amenity": "clinic",
        "fixme": "Approx. Location : should be revised!",
        "name": "CMIE - Nara"
      },
      "geometry": {
        "type": "Point",
        "coordinates": [
          -7.27389,
          15.17979
        ]
      }
    },
    {
      "type": "Feature",
      "id": "node/2163838666",
      "properties": {
        "@id": "node/2163838666",
        "amenity": "clinic",
        "fixme": "Approx. Location : should be revised!",
        "name": "CMIE - Niono"
      },
      "geometry": {
        "type": "Point",
        "coordinates": [
          -5.98423,
          14.25846
        ]
      }
    },
    {
      "type": "Feature",
      "id": "node/2163838667",
      "properties": {
        "@id": "node/2163838667",
        "amenity": "clinic",
        "fixme": "Approx. Location : should be revised!",
        "name": "CMIE - San"
      },
      "geometry": {
        "type": "Point",
        "coordinates": [
          -4.9041,
          13.31178
        ]
      }
    },
    {
      "type": "Feature",
      "id": "node/2163838668",
      "properties": {
        "@id": "node/2163838668",
        "amenity": "clinic",
        "fixme": "Approx. Location : should be revised!",
        "name": "CMIE - Ségou"
      },
      "geometry": {
        "type": "Point",
        "coordinates": [
          -6.27467,
          13.43968
        ]
      }
    },
    {
      "type": "Feature",
      "id": "node/2163838669",
      "properties": {
        "@id": "node/2163838669",
        "amenity": "clinic",
        "fixme": "Approx. Location : should be revised!",
        "name": "CMIE- Yanfolila"
      },
      "geometry": {
        "type": "Point",
        "coordinates": [
          -8.1507383,
          11.1736075
        ]
      }
    },
    {
      "type": "Feature",
      "id": "node/2163838673",
      "properties": {
        "@id": "node/2163838673",
        "amenity": "clinic",
        "fixme": "Approx. Location : should be revised!",
        "name": "COH"
      },
      "geometry": {
        "type": "Point",
        "coordinates": [
          -8.0501,
          12.61686
        ]
      }
    },
    {
      "type": "Feature",
      "id": "node/2163838676",
      "properties": {
        "@id": "node/2163838676",
        "amenity": "clinic",
        "fixme": "Approx. Location : should be revised!",
        "name": "COMMUNE5 clinic"
      },
      "geometry": {
        "type": "Point",
        "coordinates": [
          -7.97853,
          12.60219
        ]
      }
    },
    {
      "type": "Feature",
      "id": "node/2163838677",
      "properties": {
        "@id": "node/2163838677",
        "amenity": "clinic",
        "fixme": "Approx. Location : should be revised!",
        "name": "COMMUNE6 clinic"
      },
      "geometry": {
        "type": "Point",
        "coordinates": [
          -7.94127,
          12.60405
        ]
      }
    },
    {
      "type": "Feature",
      "id": "node/2163838680",
      "properties": {
        "@id": "node/2163838680",
        "amenity": "clinic",
        "fixme": "Approx. Location : should be revised!",
        "name": "CSCOM de ABAKOIRA"
      },
      "geometry": {
        "type": "Point",
        "coordinates": [
          -1.5702778,
          17.0347222
        ]
      }
    },
    {
      "type": "Feature",
      "id": "node/2163838681",
      "properties": {
        "@id": "node/2163838681",
        "amenity": "clinic",
        "fixme": "Approx. Location : should be revised!",
        "name": "CSCOM de ABEIBARA CENTRAL"
      },
      "geometry": {
        "type": "Point",
        "coordinates": [
          1.98864,
          19.46233
        ]
      }
    },
    {
      "type": "Feature",
      "id": "node/2163838683",
      "properties": {
        "@id": "node/2163838683",
        "amenity": "clinic",
        "fixme": "Approx. Location : should be revised!",
        "name": "CSCOM de ACHARANE"
      },
      "geometry": {
        "type": "Point",
        "coordinates": [
          -5.29455,
          23.00839
        ]
      }
    },
    {
      "type": "Feature",
      "id": "node/2163838686",
      "properties": {
        "@id": "node/2163838686",
        "amenity": "clinic",
        "fixme": "Approx. Location : should be revised!",
        "name": "CSCOM de ADERMALANE"
      },
      "geometry": {
        "type": "Point",
        "coordinates": [
          -4.35126,
          16.87462
        ]
      }
    },
    {
      "type": "Feature",
      "id": "node/2163838687",
      "properties": {
        "@id": "node/2163838687",
        "amenity": "clinic",
        "fixme": "Approx. Location : should be revised!",
        "name": "CSCOM de AGHABO"
      },
      "geometry": {
        "type": "Point",
        "coordinates": [
          1.43629,
          18.05124
        ]
      }
    },
    {
      "type": "Feature",
      "id": "node/2163838688",
      "properties": {
        "@id": "node/2163838688",
        "amenity": "clinic",
        "fixme": "Approx. Location : should be revised!",
        "name": "CSCOM de AGLAL"
      },
      "geometry": {
        "type": "Point",
        "coordinates": [
          -1.75981,
          17.19239
        ]
      }
    },
    {
      "type": "Feature",
      "id": "node/2163838689",
      "properties": {
        "@id": "node/2163838689",
        "amenity": "clinic",
        "fixme": "Approx. Location : should be revised!",
        "name": "CSCOM de AGOUNI"
      },
      "geometry": {
        "type": "Point",
        "coordinates": [
          -3.5159,
          21.07792
        ]
      }
    },
    {
      "type": "Feature",
      "id": "node/2163838690",
      "properties": {
        "@id": "node/2163838690",
        "amenity": "clinic",
        "fixme": "Approx. Location : should be revised!",
        "name": "CSCOM de ALIOU"
      },
      "geometry": {
        "type": "Point",
        "coordinates": [
          1.70062,
          18.32173
        ]
      }
    },
    {
      "type": "Feature",
      "id": "node/2163838691",
      "properties": {
        "@id": "node/2163838691",
        "amenity": "clinic",
        "fixme": "Approx. Location : should be revised!",
        "name": "CSCOM de ALJANABANDJA"
      },
      "geometry": {
        "type": "Point",
        "coordinates": [
          -9.0333719,
          16.2669317
        ]
      }
    },
    {
      "type": "Feature",
      "id": "node/2163838692",
      "properties": {
        "@id": "node/2163838692",
        "amenity": "clinic",
        "fixme": "Approx. Location : should be revised!",
        "name": "CSCOM de ALLAHINA"
      },
      "geometry": {
        "type": "Point",
        "coordinates": [
          -8.6054,
          15.09111
        ]
      }
    },
    {
      "type": "Feature",
      "id": "node/2163838693",
      "properties": {
        "@id": "node/2163838693",
        "amenity": "clinic",
        "fixme": "Approx. Location : should be revised!",
        "name": "CSCOM de ALMOUSTARAT"
      },
      "geometry": {
        "type": "Point",
        "coordinates": [
          0.2513,
          17.47898
        ]
      }
    },
    {
      "type": "Feature",
      "id": "node/2163838694",
      "properties": {
        "@id": "node/2163838694",
        "amenity": "clinic",
        "fixme": "Approx. Location : should be revised!",
        "name": "CSCOM de AMBA"
      },
      "geometry": {
        "type": "Point",
        "coordinates": [
          -2.97185,
          14.79329
        ]
      }
    },
    {
      "type": "Feature",
      "id": "node/2163838700",
      "properties": {
        "@id": "node/2163838700",
        "amenity": "clinic",
        "fixme": "Approx. Location : should be revised!",
        "fixme_1": "guess is not the location",
        "name": "CSCOM de AMBIDEDI POSTE"
      },
      "geometry": {
        "type": "Point",
        "coordinates": [
          -11.83108,
          14.44057
        ]
      }
    },
    {
      "type": "Feature",
      "id": "node/2163838705",
      "properties": {
        "@id": "node/2163838705",
        "amenity": "clinic",
        "fixme": "Approx. Location : should be revised!",
        "name": "CSCOM de AMBIDEDI-KORE"
      },
      "geometry": {
        "type": "Point",
        "coordinates": [
          -11.75116,
          14.7936
        ]
      }
    },
    {
      "type": "Feature",
      "id": "node/2163838708",
      "properties": {
        "@id": "node/2163838708",
        "amenity": "clinic",
        "fixme": "Approx. Location : should be revised!",
        "name": "CSCOM de AMBIRI"
      },
      "geometry": {
        "type": "Point",
        "coordinates": [
          -4.213,
          15.5275
        ]
      }
    },
    {
      "type": "Feature",
      "id": "node/2163838709",
      "properties": {
        "@id": "node/2163838709",
        "amenity": "clinic",
        "fixme": "Approx. Location : should be revised!",
        "name": "CSCOM de AMBIRI-HABE"
      },
      "geometry": {
        "type": "Point",
        "coordinates": [
          -4.2068333,
          15.5088333
        ]
      }
    },
    {
      "type": "Feature",
      "id": "node/2163838710",
      "properties": {
        "@id": "node/2163838710",
        "amenity": "clinic",
        "fixme": "Approx. Location : should be revised!",
        "name": "CSCOM de ANDERAMBOUKANE"
      },
      "geometry": {
        "type": "Point",
        "coordinates": [
          3.38357,
          15.79104
        ]
      }
    },
    {
      "type": "Feature",
      "id": "node/2163838714",
      "properties": {
        "@id": "node/2163838714",
        "amenity": "clinic",
        "fixme": "Approx. Location : should be revised!",
        "name": "CSCOM de ANDIAM"
      },
      "geometry": {
        "type": "Point",
        "coordinates": [
          -3.94919,
          15.9418
        ]
      }
    },
    {
      "type": "Feature",
      "id": "node/2163838719",
      "properties": {
        "@id": "node/2163838719",
        "amenity": "clinic",
        "fixme": "Approx. Location : should be revised!",
        "name": "CSCOM de ANEFIF"
      },
      "geometry": {
        "type": "Point",
        "coordinates": [
          0.87414,
          18.23253
        ]
      }
    },
    {
      "type": "Feature",
      "id": "node/2163838728",
      "properties": {
        "@id": "node/2163838728",
        "amenity": "clinic",
        "fixme": "Approx. Location : should be revised!",
        "name": "CSCOM de ANOUZEGRENE"
      },
      "geometry": {
        "type": "Point",
        "coordinates": [
          2.49717,
          15.53711
        ]
      }
    },
    {
      "type": "Feature",
      "id": "node/2163838733",
      "properties": {
        "@id": "node/2163838733",
        "amenity": "clinic",
        "fixme": "Approx. Location : should be revised!",
        "name": "CSCOM de AOUROU"
      },
      "geometry": {
        "type": "Point",
        "coordinates": [
          -11.4955,
          14.99123
        ]
      }
    },
    {
      "type": "Feature",
      "id": "node/2163838738",
      "properties": {
        "@id": "node/2163838738",
        "amenity": "clinic",
        "fixme": "Approx. Location : should be revised!",
        "name": "CSCOM de ARABEBE"
      },
      "geometry": {
        "type": "Point",
        "coordinates": [
          -3.8013478,
          16.0825512
        ]
      }
    },
    {
      "type": "Feature",
      "id": "node/2163838742",
      "properties": {
        "@id": "node/2163838742",
        "amenity": "clinic",
        "fixme": "Approx. Location : should be revised!",
        "name": "CSCOM de ARHAM"
      },
      "geometry": {
        "type": "Point",
        "coordinates": [
          -3.3798157,
          16.3796972
        ]
      }
    },
    {
      "type": "Feature",
      "id": "node/2163838743",
      "properties": {
        "@id": "node/2163838743",
        "amenity": "clinic",
        "fixme": "Approx. Location : should be revised!",
        "name": "CSCOM de AROUANE"
      },
      "geometry": {
        "type": "Point",
        "coordinates": [
          -3.525,
          18.90417
        ]
      }
    },
    {
      "type": "Feature",
      "id": "node/2163838744",
      "properties": {
        "@id": "node/2163838744",
        "amenity": "clinic",
        "fixme": "Location approximate",
        "health_facility:type": "CSCom",
        "is_in:cercle": "Kati",
        "name": "Centre de Santé Communautaire ASACO - San",
        "pcode": "ML02R06C002",
        "source": "OMS Survey",
        "start_date": "1-Jan-2001",
        "wheelchair": "yes",
        "who:code_csref": "ML02R06",
        "who:distance": "40",
        "who:nbre_village": "3"
      },
      "geometry": {
        "type": "Point",
        "coordinates": [
          -7.8759,
          12.69129
        ]
      }
    },
    {
      "type": "Feature",
      "id": "node/2163838745",
      "properties": {
        "@id": "node/2163838745",
        "alt_name": "CSCOM de ASACO BAO (CSCOM BANAMBA OUEST)",
        "amenity": "clinic",
        "fixme": "Location approximate",
        "health_facility:type": "CSCom",
        "is_in:cercle": "Banamba",
        "name": "Centre de Santé Communautaire de Banamba Ouest",
        "pcode": "ML02R02C001",
        "source": "OMS Survey",
        "start_date": "1-Jan-2006",
        "wheelchair": "no",
        "who:code_csref": "ML02R02",
        "who:distance": "3",
        "who:nbre_village": "2"
      },
      "geometry": {
        "type": "Point",
        "coordinates": [
          -7.4410711,
          13.5487502
        ]
      }
    },
    {
      "type": "Feature",
      "id": "node/2163838747",
      "properties": {
        "@id": "node/2163838747",
        "amenity": "clinic",
        "fixme": "Approx. Location : should be revised!",
        "name": "CSCOM de ASACO KANER"
      },
      "geometry": {
        "type": "Point",
        "coordinates": [
          -8.0000089,
          12.5500544
        ]
      }
    },
    {
      "type": "Feature",
      "id": "node/2163838748",
      "properties": {
        "@id": "node/2163838748",
        "amenity": "clinic",
        "fixme": "Approx. Location : should be revised!",
        "name": "CSCOM de ASACO LELENI"
      },
      "geometry": {
        "type": "Point",
        "coordinates": [
          -5.2447222,
          12.3908333
        ]
      }
    },
    {
      "type": "Feature",
      "id": "node/2163838759",
      "properties": {
        "@id": "node/2163838759",
        "amenity": "clinic",
        "fixme": "Location approximate",
        "health_facility:type": "CSCom",
        "is_in:cercle": "Commune 3",
        "name": "Centre de Santé Communautaire ASACODES",
        "pcode": "ML08R03C003",
        "source": "OMS Survey",
        "start_date": "1-Jan-1995",
        "wheelchair": "no",
        "who:code_csref": "ML08R03",
        "who:distance": "4",
        "who:nbre_village": "5"
      },
      "geometry": {
        "type": "Point",
        "coordinates": [
          -8.03245,
          12.66283
        ]
      }
    },
    {
      "type": "Feature",
      "id": "node/2163838769",
      "properties": {
        "@id": "node/2163838769",
        "amenity": "clinic",
        "fixme": "Location approximate",
        "health_facility:type": "CSCom",
        "is_in:cercle": "Bougouni",
        "name": "Centre de Santé Communautaire ASACOGA I",
        "pcode": "ML03R02C001",
        "source": "OMS Survey",
        "start_date": "1-Mar-1997",
        "wheelchair": "yes",
        "who:code_csref": "ML03R02",
        "who:distance": "60",
        "who:nbre_village": "30"
      },
      "geometry": {
        "type": "Point",
        "coordinates": [
          -7.4368017,
          10.9943543
        ]
      }
    },
    {
      "type": "Feature",
      "id": "node/2163838771",
      "properties": {
        "@id": "node/2163838771",
        "amenity": "clinic",
        "fixme": "Location approximate",
        "health_facility:type": "CSCom",
        "is_in:cercle": "Commune 2",
        "name": "Centre de Santé Communautaire ASACOGO",
        "pcode": "ML08R02C002",
        "source": "OMS Survey",
        "start_date": "4-Nov-2011",
        "wheelchair": "yes",
        "who:code_csref": "ML08R02",
        "who:distance": "0",
        "who:nbre_village": "3"
      },
      "geometry": {
        "type": "Point",
        "coordinates": [
          -8.0001903,
          12.6835994
        ]
      }
    },
    {
      "type": "Feature",
      "id": "node/2163838773",
      "properties": {
        "@id": "node/2163838773",
        "amenity": "clinic",
        "fixme": "Approx. Location : should be revised!",
        "name": "CSCOM de ASACOHERE"
      },
      "geometry": {
        "type": "Point",
        "coordinates": [
          -7.9276762,
          12.3157358
        ]
      }
    },
    {
      "type": "Feature",
      "id": "node/2163838775",
      "properties": {
        "@id": "node/2163838775",
        "amenity": "clinic",
        "fixme": "Approx. Location : should be revised!",
        "name": "CSCOM de ASACOKA"
      },
      "geometry": {
        "type": "Point",
        "coordinates": [
          -7.82432,
          12.51719
        ]
      }
    },
    {
      "type": "Feature",
      "id": "node/2163838785",
      "properties": {
        "@id": "node/2163838785",
        "amenity": "clinic",
        "fixme": "Approx. Location : should be revised!",
        "health_facility:type": "CSCom",
        "is_in:cercle": "Commune 6",
        "name": "Centre de Santé Communautaire ASACOMA I",
        "pcode": "ML08R06C007",
        "source": "OMS Survey",
        "start_date": "15-Sep-1991",
        "wheelchair": "yes",
        "who:code_csref": "ML08R06",
        "who:distance": "2",
        "who:nbre_village": "1"
      },
      "geometry": {
        "type": "Point",
        "coordinates": [
          -7.9561543,
          12.6104642
        ]
      }
    },
    {
      "type": "Feature",
      "id": "node/2163838793",
      "properties": {
        "@id": "node/2163838793",
        "alt_name": "CSCOM de ASACOOUEL (OUELESSEBOUGOU CENTRAL)",
        "amenity": "clinic",
        "fixme": "Location approximate",
        "health_facility:type": "CSCom",
        "is_in:cercle": "Ouélessébougou",
        "name": "Centre de Santé Communautaire de Ouélessébougou Central",
        "pcode": "ML02R09C001",
        "source": "OMS Survey",
        "start_date": "1-Jan-1998",
        "wheelchair": "yes",
        "who:code_csref": "ML02R09",
        "who:distance": "0",
        "who:nbre_village": "29"
      },
      "geometry": {
        "type": "Point",
        "coordinates": [
          -7.912934,
          11.991556
        ]
      }
    },
    {
      "type": "Feature",
      "id": "node/2163838800",
      "properties": {
        "@id": "node/2163838800",
        "amenity": "clinic",
        "fixme": "Approx. Location : should be revised!",
        "name": "CSCOM de ASACOSIME"
      },
      "geometry": {
        "type": "Point",
        "coordinates": [
          -7.85851,
          12.62568
        ]
      }
    },
    {
      "type": "Feature",
      "id": "node/2163838807",
      "properties": {
        "@id": "node/2163838807",
        "amenity": "clinic",
        "fixme": "Approx. Location : should be revised!",
        "name": "CSCOM de ASAKKOUL"
      },
      "geometry": {
        "type": "Point",
        "coordinates": [
          -8.016705,
          12.5500614
        ]
      }
    },
    {
      "type": "Feature",
      "id": "node/2163838809",
      "properties": {
        "@id": "node/2163838809",
        "amenity": "clinic",
        "fixme": "Location approximate",
        "health_facility:type": "CSCom",
        "is_in:cercle": "Kati",
        "name": "Centre de Santé Communautaire d'Ascomka",
        "pcode": "ML02R06C008",
        "source": "OMS Survey",
        "start_date": "1-Jan-1993",
        "wheelchair": "yes",
        "who:code_csref": "ML02R06",
        "who:distance": "1",
        "who:nbre_village": "1"
      },
      "geometry": {
        "type": "Point",
        "coordinates": [
          -7.96408,
          12.72017
        ]
      }
    },
    {
      "type": "Feature",
      "id": "node/2163838810",
      "properties": {
        "@id": "node/2163838810",
        "amenity": "clinic",
        "fixme": "Approx. Location : should be revised!",
        "name": "CSCOM de ASCOTAMB"
      },
      "geometry": {
        "type": "Point",
        "coordinates": [
          -4.20992,
          14.57205
        ]
      }
    },
    {
      "type": "Feature",
      "id": "node/2163838811",
      "properties": {
        "@id": "node/2163838811",
        "amenity": "clinic",
        "fixme": "Approx. Location : should be revised!",
        "name": "CSCOM de ASSEKHAT (ADEL - HOC)"
      },
      "geometry": {
        "type": "Point",
        "coordinates": [
          0.73925,
          19.09701
        ]
      }
    },
    {
      "type": "Feature",
      "id": "node/2163838812",
      "properties": {
        "@id": "node/2163838812",
        "amenity": "clinic",
        "fixme": "Approx. Location : should be revised!",
        "name": "CSCOM de ASSIDI"
      },
      "geometry": {
        "type": "Point",
        "coordinates": [
          -3.0158,
          18.09329
        ]
      }
    },
    {
      "type": "Feature",
      "id": "node/2163838813",
      "properties": {
        "@id": "node/2163838813",
        "amenity": "clinic",
        "fixme": "Approx. Location : should be revised!",
        "name": "CSCOM de ATTARA"
      },
      "geometry": {
        "type": "Point",
        "coordinates": [
          -4.33661,
          15.74868
        ]
      }
    },
    {
      "type": "Feature",
      "id": "node/2163838814",
      "properties": {
        "@id": "node/2163838814",
        "amenity": "clinic",
        "fixme": "Approx. Location : should be revised!",
        "name": "CSCOM de AWOINY"
      },
      "geometry": {
        "type": "Point",
        "coordinates": [
          -9.52366,
          15.15438
        ]
      }
    },
    {
      "type": "Feature",
      "id": "node/2163838815",
      "properties": {
        "@id": "node/2163838815",
        "amenity": "clinic",
        "fixme": "Location approximate",
        "health_facility:type": "CSCom",
        "is_in:cercle": "Ouelessebougou",
        "name": "Centre de Santé Communautaire de Baala",
        "pcode": "ML02R09C002",
        "source": "OMS Survey",
        "start_date": "1-Feb-1999",
        "wheelchair": "no",
        "who:code_csref": "ML02R09",
        "who:distance": "90",
        "who:nbre_village": "8"
      },
      "geometry": {
        "type": "Point",
        "coordinates": [
          -8.03485,
          12.2164
        ]
      }
    },
    {
      "type": "Feature",
      "id": "node/2163838816",
      "properties": {
        "@id": "node/2163838816",
        "amenity": "clinic",
        "fixme": "Approx. Location : should be revised!",
        "name": "CSCOM de BABOUGOU"
      },
      "geometry": {
        "type": "Point",
        "coordinates": [
          -5.67674,
          13.78417
        ]
      }
    },
    {
      "type": "Feature",
      "id": "node/2163838817",
      "properties": {
        "@id": "node/2163838817",
        "amenity": "clinic",
        "fixme": "Location approximate",
        "health_facility:type": "CSCom",
        "is_in:cercle": "Kita",
        "name": "Centre de Santé Communautaire de Badinko",
        "pcode": "ML01R05C001",
        "source": "OMS Survey",
        "start_date": "1-Mar-1985",
        "wheelchair": "yes",
        "who:code_csref": "ML01R05",
        "who:distance": "35",
        "who:nbre_village": "5"
      },
      "geometry": {
        "type": "Point",
        "coordinates": [
          -9.11969,
          13.10655
        ]
      }
    },
    {
      "type": "Feature",
      "id": "node/2163838818",
      "properties": {
        "@id": "node/2163838818",
        "amenity": "clinic",
        "fixme": "Location approximate",
        "health_facility:type": "CSCom",
        "is_in:cercle": "Yanfolila",
        "name": "Centre de Santé Communautaire de Badogo",
        "pcode": "ML03R08C001",
        "source": "OMS Survey",
        "start_date": "21-Sep-2006",
        "wheelchair": "yes",
        "who:code_csref": "ML03R08",
        "who:distance": "20",
        "who:nbre_village": "1"
      },
      "geometry": {
        "type": "Point",
        "coordinates": [
          -8.215,
          11.03
        ]
      }
    },
    {
      "type": "Feature",
      "id": "node/2163838819",
      "properties": {
        "@id": "node/2163838819",
        "amenity": "clinic",
        "fixme": "Approx. Location : should be revised!",
        "name": "CSCOM de BAFARARA"
      },
      "geometry": {
        "type": "Point",
        "coordinates": [
          -11.45445,
          15.47479
        ]
      }
    },
    {
      "type": "Feature",
      "id": "node/2163838820",
      "properties": {
        "@id": "node/2163838820",
        "amenity": "clinic",
        "fixme": "Approx. Location : should be revised!",
        "name": "CSCOM de BAFOULABE CENTRAL"
      },
      "geometry": {
        "type": "Point",
        "coordinates": [
          -10.75875,
          13.80095
        ]
      }
    },
    {
      "type": "Feature",
      "id": "node/2163838821",
      "properties": {
        "@id": "node/2163838821",
        "amenity": "clinic",
        "fixme": "Location approximate",
        "health_facility:type": "CSCom",
        "is_in:cercle": "Segou",
        "name": "Centre de Santé Communautaire de Bagadadji Sud",
        "pcode": "ML04R01C001",
        "source": "OMS Survey",
        "start_date": "13-Jul-2009",
        "wheelchair": "no",
        "who:code_csref": "ML04R01",
        "who:distance": "8",
        "who:nbre_village": "3"
      },
      "geometry": {
        "type": "Point",
        "coordinates": [
          -6.2708508,
          13.4276886
        ]
      }
    },
    {
      "type": "Feature",
      "id": "node/2163838822",
      "properties": {
        "@id": "node/2163838822",
        "amenity": "clinic",
        "fixme": "Approx. Location : should be revised!",
        "name": "CSCOM de BAGNADJI"
      },
      "geometry": {
        "type": "Point",
        "coordinates": [
          -0.14557,
          16.6373
        ]
      }
    },
    {
      "type": "Feature",
      "id": "node/2163838823",
      "properties": {
        "@id": "node/2163838823",
        "amenity": "clinic",
        "fixme": "Approx. Location : should be revised!",
        "name": "CSCOM de BAGUINEDA"
      },
      "geometry": {
        "type": "Point",
        "coordinates": [
          -7.69019,
          12.65298
        ]
      }
    },
    {
      "type": "Feature",
      "id": "node/2163838824",
      "properties": {
        "@id": "node/2163838824",
        "amenity": "clinic",
        "fixme": "Approx. Location : should be revised!",
        "name": "CSCOM de BAHONDO"
      },
      "geometry": {
        "type": "Point",
        "coordinates": [
          -1.4358333,
          16.9858333
        ]
      }
    },
    {
      "type": "Feature",
      "id": "node/2163838825",
      "properties": {
        "@id": "node/2163838825",
        "amenity": "clinic",
        "fixme": "Location approximate",
        "health_facility:type": "CSCom",
        "is_in:cercle": "Kangaba",
        "name": "Centre de Santé Communautaire de Balan-Bakama",
        "pcode": "ML02R05C001",
        "source": "OMS Survey",
        "start_date": "1-Jan-2007",
        "wheelchair": "no",
        "who:code_csref": "ML02R05",
        "who:distance": "82",
        "who:nbre_village": "6"
      },
      "geometry": {
        "type": "Point",
        "coordinates": [
          -8.85478,
          12.23193
        ]
      }
    },
    {
      "type": "Feature",
      "id": "node/2163838826",
      "properties": {
        "@id": "node/2163838826",
        "amenity": "clinic",
        "fixme": "Approx. Location : should be revised!",
        "name": "CSCOM de BALANDOUGOU"
      },
      "geometry": {
        "type": "Point",
        "coordinates": [
          -9.85113,
          13.29939
        ]
      }
    },
    {
      "type": "Feature",
      "id": "node/2163838827",
      "properties": {
        "@id": "node/2163838827",
        "amenity": "clinic",
        "fixme": "Location approximate",
        "health_facility:type": "CSCom",
        "is_in:cercle": "Yanfolila",
        "name": "Centre de Santé Communautaire de Balanfina",
        "pcode": "ML03R08C002",
        "source": "OMS Survey",
        "start_date": "10-Jan-2002",
        "who:code_csref": "ML03R08"
      },
      "geometry": {
        "type": "Point",
        "coordinates": [
          -7.8898007,
          11.0642091
        ]
      }
    },
    {
      "type": "Feature",
      "id": "node/2163838828",
      "properties": {
        "@id": "node/2163838828",
        "amenity": "clinic",
        "fixme": "Location approximate",
        "health_facility:type": "CSCom",
        "is_in:cercle": "Kita",
        "name": "Centre de Santé Communautaire de Balea",
        "pcode": "ML01R05C003",
        "source": "OMS Survey",
        "start_date": "1-Feb-2011",
        "wheelchair": "yes",
        "who:code_csref": "ML01R05",
        "who:distance": "185",
        "who:nbre_village": "3"
      },
      "geometry": {
        "type": "Point",
        "coordinates": [
          -9.9648614,
          12.2238872
        ]
      }
    },
    {
      "type": "Feature",
      "id": "node/2163838829",
      "properties": {
        "@id": "node/2163838829",
        "amenity": "clinic",
        "fixme": "Approx. Location : should be revised!",
        "name": "CSCOM de BALLE"
      },
      "geometry": {
        "type": "Point",
        "coordinates": [
          -8.37396,
          15.20151
        ]
      }
    },
    {
      "type": "Feature",
      "id": "node/2163838830",
      "properties": {
        "@id": "node/2163838830",
        "amenity": "clinic",
        "fixme": "Approx. Location : should be revised!",
        "name": "CSCOM de BAMAFELE"
      },
      "geometry": {
        "type": "Point",
        "coordinates": [
          -10.50806,
          13.26694
        ]
      }
    },
    {
      "type": "Feature",
      "id": "node/2163838831",
      "properties": {
        "@id": "node/2163838831",
        "amenity": "clinic",
        "fixme": "Approx. Location : should be revised!",
        "name": "CSCOM de BAMBA"
      },
      "geometry": {
        "type": "Point",
        "coordinates": [
          -7.12945,
          10.42932
        ]
      }
    },
    {
      "type": "Feature",
      "id": "node/2163838832",
      "properties": {
        "@id": "node/2163838832",
        "amenity": "clinic",
        "fixme": "Approx. Location : should be revised!",
        "name": "CSCOM de BAMBA"
      },
      "geometry": {
        "type": "Point",
        "coordinates": [
          -3.1122257,
          14.6471712
        ]
      }
    },
    {
      "type": "Feature",
      "id": "node/2163838833",
      "properties": {
        "@id": "node/2163838833",
        "amenity": "clinic",
        "fixme": "Approx. Location : should be revised!",
        "name": "CSCOM de BAMBA"
      },
      "geometry": {
        "type": "Point",
        "coordinates": [
          -1.17878,
          17.41839
        ]
      }
    },
    {
      "type": "Feature",
      "id": "node/2163838834",
      "properties": {
        "@id": "node/2163838834",
        "amenity": "clinic",
        "fixme": "Approx. Location : should be revised!",
        "name": "CSCOM de BAMBARA MAOUDE"
      },
      "geometry": {
        "type": "Point",
        "coordinates": [
          -2.55951,
          15.71267
        ]
      }
    },